City,Lat,Lng,Max Temp,Humidity,Cloudiness,Wind Speed,Country,date
Kavieng,-2.5744,150.7967,301.5,67,98,2.95,PG,1615412938
Rikitea,-23.1203,-134.9692,299.22,75,11,7.79,PF,1615412939
Vangaindrano,-23.35,47.6,297.3,87,40,2.31,MG,1615412940
Jamestown,42.097,-79.2353,287.94,27,1,5.61,US,1615412235
Salalah,17.0151,54.0924,297.15,41,0,2.06,OM,1615412390
Punta Arenas,-53.15,-70.9167,283.92,40,40,11.83,CL,1615412392
Aklavik,68.2191,-135.0107,260.15,78,90,2.06,CA,1615412175
Port Elizabeth,-33.918,25.5701,293.15,88,75,6.17,ZA,1615412394
Tiksi,71.6872,128.8694,242.48,83,78,10.67,RU,1615412395
Saint-Philippe,-21.3585,55.7679,297.5,73,20,1.54,RE,1615412396
Albany,42.6001,-73.9662,284.65,33,40,6.17,US,1615412133
Dingle,10.9995,122.6711,296.53,89,82,3.84,PH,1615412399
Pacific Grove,36.6177,-121.9166,282.84,81,75,2.57,US,1615412400
Dunda,-8.1167,34.25,290.89,93,98,1.08,TZ,1615412401
Tezu,27.9167,96.1667,293.58,39,50,1.42,IN,1615412404
Dikson,73.5069,80.5464,251.46,91,100,10.63,RU,1615412406
Chui,-33.6971,-53.4616,293.36,79,17,2.93,UY,1615412407
Qaanaaq,77.484,-69.3632,259.1,78,1,2.66,GL,1615412408
Mar del Plata,-38.0023,-57.5575,296.11,64,0,5.66,AR,1615412410
Maketu,-37.7667,176.45,292.59,100,100,0.89,NZ,1615412411
Tasiilaq,65.6145,-37.6368,262.15,92,20,2.06,GL,1615412412
Bluff,-46.6,168.3333,284.82,86,15,0.45,NZ,1615412951
Pevek,69.7008,170.3133,244.27,79,0,7.81,RU,1615412952
Stafford,52.8052,-2.1164,284.08,95,100,10.27,GB,1615412953
Ponta do Sol,32.6667,-17.1,286.85,72,40,5.66,PT,1615412954
Mataura,-46.1927,168.8643,284.82,86,11,0.45,NZ,1615412954
Ushuaia,-54.8,-68.3,281.15,61,75,3.09,AR,1615412904
Russell,32.3502,-85.1999,296.78,25,1,3.6,US,1615412705
Byron Bay,-28.65,153.6167,293.47,94,99,1.65,AU,1615412658
Hermanus,-34.4187,19.2345,290.93,95,99,0.45,ZA,1615412957
Hobart,-42.8794,147.3294,287.51,77,40,2.57,AU,1615412789
Busselton,-33.65,115.3333,294.39,93,100,0.45,AU,1615412959
Atar,20.5169,-13.0499,291.82,27,0,4.5,MR,1615412960
Port Lincoln,-34.7333,135.8667,291.08,84,1,3.76,AU,1615412961
Bodītī,6.9667,37.8667,289.49,69,31,0.87,ET,1615412962
Katherine,-14.4667,132.2667,297.15,100,40,2.06,AU,1615412962
Noumea,-22.2763,166.4572,299.57,65,0,0.51,NC,1615412963
Gamba,-2.65,10.0,299.32,85,100,2.35,GA,1615412964
Chokurdakh,70.6333,147.9167,254.08,91,100,5.32,RU,1615412965
Romodanovo,54.4275,45.3296,249.06,90,86,2.84,RU,1615412965
Butaritari,3.0707,172.7902,300.6,77,92,5.34,KI,1615412966
Bengkulu,-3.8004,102.2655,296.86,89,31,2.16,ID,1615412967
Yashan,22.1975,109.9419,293.27,90,90,1.3,CN,1615412968
Cherskiy,68.75,161.3,248.91,79,0,7.31,RU,1615412969
Samarai,-10.6167,150.6667,301.65,74,26,3.16,PG,1615412969
Saint Cloud,45.5608,-94.1625,275.42,93,90,4.12,US,1615412870
Eirunepé,-6.6603,-69.8736,298.48,77,80,1.25,BR,1615412971
Qalyub,30.1792,31.2056,293.15,34,96,2.48,EG,1615412971
Unaí,-16.3575,-46.9061,295.85,84,95,0.39,BR,1615412972
Norman Wells,65.282,-126.8329,255.15,71,75,4.12,CA,1615412973
Souillac,-20.5167,57.5167,299.15,83,40,5.14,MU,1615412974
Kapaa,22.0752,-159.319,296.35,83,90,5.14,US,1615412975
Broome,42.2506,-75.833,284.72,35,1,4.63,US,1615412975
Carballo,43.213,-8.691,285.41,94,75,3.09,ES,1615412976
Esperance,-33.8667,121.9,291.15,88,100,3.09,AU,1615412977
Sioux Lookout,50.1001,-91.917,271.15,54,75,3.09,CA,1615412978
Cape Town,-33.9258,18.4232,290.95,94,75,4.12,ZA,1615412504
Alibag,18.6411,72.8792,300.15,78,0,2.57,IN,1615412980
Nortelândia,-14.4547,-56.8028,297.2,90,99,2.13,BR,1615412981
Thakurgaon,26.0333,88.4667,292.73,36,0,1.83,BD,1615412982
New Norfolk,-42.7826,147.0587,286.78,69,2,0.94,AU,1615412983
Hirtshals,57.5881,9.9592,275.25,100,75,9.77,DK,1615412984
Mogocha,53.7333,119.7667,256.72,89,0,0.78,RU,1615412985
Lompoc,34.6391,-120.4579,284.8,62,40,3.09,US,1615412985
Touros,-5.1989,-35.4608,300.15,78,20,4.12,BR,1615412986
Ribeira Grande,38.5167,-28.7,289.15,94,75,2.06,PT,1615412987
East London,-33.0153,27.9116,297.27,71,6,3.8,ZA,1615412988
Kiryat Gat,31.61,34.7642,292.26,48,0,3.09,IL,1615412988
Sisimiut,66.9395,-53.6735,265.69,95,100,1.87,GL,1615412989
Shuyskoye,59.3736,41.0305,255.33,93,42,2.71,RU,1615412990
Hithadhoo,-0.6,73.0833,300.05,77,100,0.41,MV,1615412991
Namatanai,-3.6667,152.4333,300.96,68,100,0.84,PG,1615412992
Nové Město pod Smrkem,50.9249,15.2294,272.2,75,28,1.34,CZ,1615412992
Mwene-Ditu,-7.0,23.45,292.44,93,62,1.95,CD,1615412993
Tarragona,41.129,1.249,282.21,71,0,3.09,ES,1615412994
Port Moresby,-9.4431,147.1797,298.15,88,40,1.44,PG,1615412995
Coyhaique,-45.5752,-72.0662,280.15,81,75,2.06,CL,1615412995
Vila Franca do Campo,37.7167,-25.4333,289.15,88,40,5.66,PT,1615412997
Laas,46.6166,10.7002,274.25,59,0,2.57,IT,1615412998
Varhaug,58.6147,5.6457,274.67,93,75,11.83,NO,1615412998
Ostrovnoy,68.0531,39.5131,256.71,90,10,5.7,RU,1615412999
Adelanto,34.5828,-117.4092,279.47,75,18,5.81,US,1615413000
Puerto Baquerizo Moreno,-0.9,-89.6,300.15,89,75,3.09,EC,1615413001
Barrow,71.2906,-156.7887,254.15,71,90,9.77,US,1615412701
Rapid Valley,44.0625,-103.1463,273.39,86,90,9.26,US,1615413002
Princeton,25.5384,-80.4089,296.19,64,1,6.17,US,1615413004
Atuona,-9.8,-139.0333,299.88,74,10,6.79,PF,1615413004
Kenai,60.5544,-151.2583,273.28,86,90,6.69,US,1615413005
Castro,-24.7911,-50.0119,290.81,83,24,1.57,BR,1615413006
Saskylakh,71.9167,114.0833,245.98,83,94,9.19,RU,1615413007
Padang,-0.9492,100.3543,296.15,94,40,0.51,ID,1615413007
São Filipe,14.8961,-24.4956,294.08,80,97,5.11,CV,1615413008
Belaya Gora,68.5333,146.4167,253.66,86,88,4.58,RU,1615413009
Fairbanks,64.8378,-147.7164,268.84,93,90,1.54,US,1615412856
Clyde River,70.4692,-68.5914,251.15,71,1,3.6,CA,1615413010
Cidreira,-30.1811,-50.2056,294.44,78,3,2.22,BR,1615413011
Eenhana,-17.4667,16.3333,296.61,50,28,3.19,NA,1615413012
Fortuna,40.5982,-124.1573,282.76,81,1,2.57,US,1615413014
Iqaluit,63.7506,-68.5145,250.15,64,20,3.6,CA,1615413015
Governador Valadares,-18.8511,-41.9494,297.21,87,87,2.09,BR,1615413015
Kashgar,39.4547,75.9797,281.15,34,0,5.0,CN,1615413016
Avarua,-21.2078,-159.775,300.15,83,40,1.54,CK,1615413017
Faanui,-16.4833,-151.75,300.68,74,100,5.18,PF,1615413018
Vaini,-21.2,-175.2,300.15,65,20,3.6,TO,1615413018
Pimentel,-6.8367,-79.9342,300.05,58,20,5.66,PE,1615413019
Campobello di Mazara,37.6358,12.7443,282.77,67,20,6.17,IT,1615413021
Saint George,37.1041,-113.5841,282.78,37,90,13.38,US,1615413021
Upernavik,72.7868,-56.1549,258.91,81,27,1.1,GL,1615413022
Mahébourg,-20.4081,57.7,299.15,83,40,5.14,MU,1615413023
Bilma,18.6853,12.9164,298.43,15,0,2.16,NE,1615413024
Muros,42.7762,-9.0603,286.21,92,100,4.92,ES,1615413025
Bredasdorp,-34.5322,20.0403,290.15,94,100,3.6,ZA,1615413026
Carnarvon,-24.8667,113.6333,296.15,94,90,2.57,AU,1615413026
Sungai Raya,0.7,108.9,297.15,90,100,1.96,ID,1615413027
Semey,50.4111,80.2275,267.82,95,100,4.4,KZ,1615413028
Nanortalik,60.1432,-45.2371,269.95,93,97,7.18,GL,1615413029
Provideniya,64.3833,-173.3,250.15,70,0,2.0,RU,1615413030
Moyamba,8.1667,-12.4333,298.96,81,84,2.08,SL,1615413030
Madison,34.7334,-86.5667,295.13,33,1,6.17,US,1615412792
Champerico,14.3,-91.9167,303.28,55,40,7.2,GT,1615413032
Cayenne,4.9333,-52.3333,300.28,78,75,4.12,GF,1615413032
Nikolskoye,59.7035,30.7861,257.16,71,0,2.0,RU,1615413033
Labuhan,-6.8844,112.2051,298.32,85,76,3.24,ID,1615413034
Saint Paul Harbor,57.79,-152.4072,275.15,64,40,8.23,US,1615413035
Puerto Ayora,-0.7393,-90.3518,299.55,88,75,1.03,EC,1615413036
Khandagayty,50.7333,92.05,258.42,87,6,0.77,RU,1615413036
Mossamedes,-15.1961,12.1522,297.65,69,73,1.55,AO,1615413037
Evensk,61.95,159.2333,246.46,87,99,1.69,RU,1615413038
Sitka,57.0531,-135.33,277.15,75,90,5.66,US,1615413039
Shelburne,44.0787,-80.2041,283.72,46,1,5.14,CA,1615413040
Kaitangata,-46.2817,169.8464,287.04,72,1,2.24,NZ,1615413041
Broken Hill,-31.95,141.4333,291.15,72,40,3.6,AU,1615413041
Katsuura,35.1333,140.3,280.46,53,20,3.09,JP,1615413042
Steamboat Springs,40.485,-106.8317,269.39,64,75,3.6,US,1615413043
Makkah al Mukarramah,21.4267,39.8261,298.93,47,0,1.54,SA,1615413044
Biri,12.6833,124.3636,299.47,81,84,10.67,PH,1615413045
Launceston,-41.45,147.1667,287.84,82,90,1.54,AU,1615413045
Yangi Marg`ilon,40.4272,71.7189,281.15,87,90,2.06,UZ,1615413046
Kurkino,53.4257,38.6582,250.39,90,0,2.0,RU,1615413047
Urucará,-2.5364,-57.76,297.75,95,97,0.82,BR,1615413048
South Kazakhstan Region,43.0,68.0,274.8,79,25,1.58,KZ,1615413049
Vestmannaeyjar,63.4427,-20.2734,274.89,82,95,11.47,IS,1615413050
Olavarría,-36.8927,-60.3225,302.04,42,67,1.79,AR,1615413020
Berlevåg,70.8578,29.0864,262.04,67,0,14.92,NO,1615413051
Port Alfred,-33.5906,26.891,293.71,92,91,0.89,ZA,1615412847
Oistins,13.0667,-59.5333,300.15,61,40,9.26,BB,1615412860
Mousthéni,40.8667,24.1167,282.59,87,75,1.54,GR,1615413053
Kavaratti,10.5669,72.642,301.22,71,71,1.77,IN,1615413054
Pisco,-13.7,-76.2167,299.59,54,75,6.17,PE,1615413055
Bambous Virieux,-20.3428,57.7575,298.68,83,40,5.14,MU,1615413055
San Patricio,28.017,-97.5169,300.68,48,40,13.38,US,1615413056
Pisz,53.6274,21.8125,266.15,79,0,0.51,PL,1615413057
George Town,5.4112,100.3354,299.31,78,20,1.54,MY,1615413058
Aykhal,66.0,111.5,245.13,85,55,5.64,RU,1615413059
Del Rio,29.3627,-100.8968,293.72,73,1,1.54,US,1615413060
Orlik,52.5178,99.825,257.69,75,0,1.19,RU,1615413061
São João da Barra,-21.6403,-41.0511,300.15,74,75,5.14,BR,1615413062
Yagodnoye,62.55,149.6667,250.8,80,100,1.94,RU,1615413063
Seydişehir,37.4193,31.8453,279.14,68,27,1.28,TR,1615413063
Pagėgiai,55.1381,21.9089,270.79,92,16,2.62,LT,1615413065
Lebu,-37.6167,-73.65,289.93,78,95,3.53,CL,1615413066
Oudtshoorn,-33.5907,22.2014,291.15,100,75,1.03,ZA,1615413066
Koumac,-20.5667,164.2833,299.33,68,34,0.99,NC,1615413067
Ballószög,46.8622,19.5709,272.44,69,0,3.09,HU,1615413068
Trincomalee,8.5711,81.2335,300.26,79,98,5.19,LK,1615412841
Ilulissat,69.2167,-51.1,265.15,67,75,0.69,GL,1615413069
Hilo,19.7297,-155.09,296.56,78,90,4.63,US,1615413070
Kalianget,-7.05,113.9333,299.18,84,100,4.26,ID,1615413071
Acheng,45.5454,126.977,269.15,93,0,1.0,CN,1615413072
Bosaso,11.2842,49.1816,297.67,79,1,1.31,SO,1615413072
Olafsvik,64.8945,-23.7142,270.77,90,100,11.19,IS,1615413073
Kemijärvi,66.7131,27.4306,258.8,90,0,5.15,FI,1615413074
Kattivākkam,13.2167,80.3167,299.15,78,40,1.03,IN,1615413075
Camaná,-16.6228,-72.7111,297.07,72,8,2.84,PE,1615413075
Alofi,-19.0595,-169.9187,301.15,61,40,3.6,NU,1615413076
Harper,4.375,-7.7169,299.7,87,100,2.58,LR,1615413077
Arraial do Cabo,-22.9661,-42.0278,298.15,83,40,4.63,BR,1615413078
Finspång,58.7058,15.7674,271.15,74,90,4.12,SE,1615413079
Glenluce,54.8798,-4.8084,282.04,87,76,3.58,GB,1615413079
Makakilo City,21.3469,-158.0858,297.96,73,1,4.63,US,1615412917
Half Moon Bay,37.4636,-122.4286,284.54,66,20,2.57,US,1615412859
Auki,-8.7676,160.7034,301.34,72,69,2.31,SB,1615413081
Constitución,-35.3333,-72.4167,291.83,82,30,3.09,CL,1615413082
Jega,12.2175,4.3792,301.6,21,77,1.24,NG,1615413083
Quatre Cocos,-20.2078,57.7625,298.62,83,40,5.14,MU,1615413084
Peniche,39.3558,-9.3811,284.06,87,100,2.71,PT,1615413085
Kieta,-6.2167,155.6333,301.65,63,20,0.71,PG,1615413086
Vil’ne,47.6365,34.8139,268.15,68,0,3.0,UA,1615413087
Breves,-1.6822,-50.4803,296.65,96,100,1.98,BR,1615413088
Mitsamiouli,-11.3847,43.2844,300.67,76,99,3.13,KM,1615413089
Clearwater,27.9659,-82.8001,297.91,36,18,6.17,US,1615412973
Hualmay,-11.0964,-77.6139,297.32,67,99,3.85,PE,1615413091
Coquimbo,-29.9533,-71.3436,294.15,68,20,5.66,CL,1615413091
Hay River,60.8156,-115.7999,257.15,60,95,3.09,CA,1615413092
Yellowknife,62.456,-114.3525,255.3,55,1,2.57,CA,1615413062
Shingū,33.7333,135.9833,279.77,55,0,2.5,JP,1615413094
Cap Malheureux,-19.9842,57.6142,298.15,80,4,0.89,MU,1615413094
Jāwā,31.8525,35.9393,290.67,24,68,1.54,JO,1615413095
Shostka,51.863,33.4698,262.4,95,64,1.41,UA,1615413096
Hasaki,35.7333,140.8333,271.79,86,20,0.51,JP,1615413097
Luba,3.4568,8.5547,301.15,94,20,2.57,GQ,1615413097
Shihezi,44.3,86.0333,272.0,98,100,0.91,CN,1615413098
Ketchikan,55.3422,-131.6461,276.75,65,1,4.12,US,1615413099
Isetskoye,56.4858,65.3226,264.77,97,100,5.53,RU,1615413100
Sosnovo-Ozerskoye,52.5249,111.5418,260.62,92,39,1.63,RU,1615413101
Bagdarin,54.4333,113.6,258.96,83,47,0.94,RU,1615413102
Ormara,25.2088,64.6357,295.05,80,0,1.12,PK,1615413103
Zhigansk,66.7697,123.3711,248.64,89,100,0.4,RU,1615413103
Laguna,38.421,-121.4238,284.66,62,75,5.14,US,1615413104
Saldanha,-33.0117,17.9442,292.15,94,91,2.57,ZA,1615413105
Umeå,63.8284,20.2597,267.67,68,90,6.69,SE,1615412896
Guerrero Negro,27.9769,-114.0611,290.5,49,74,9.21,MX,1615413106
Havelock,34.8791,-76.9013,291.18,30,1,6.17,US,1615413107
Hong Kong,22.2855,114.1577,291.54,86,97,8.13,HK,1615413108
Ahipara,-35.1667,173.1667,293.27,83,10,3.97,NZ,1615413109
Kirkuk,35.4681,44.3922,287.98,54,100,6.43,IQ,1615412851
Santa Cruz de la Sierra,-17.8,-63.1667,305.15,45,20,5.14,BO,1615413110
Roald,62.5833,6.1333,277.15,56,75,9.77,NO,1615413111
Mizque,-17.941,-65.3402,294.14,49,6,3.03,BO,1615413111
Mahibadhoo,3.7833,72.9667,301.32,67,85,0.65,MV,1615413112
Polonnaruwa,7.9333,81.0,295.99,89,98,2.06,LK,1615413113
Flinders,-34.5833,150.8552,294.41,94,81,0.45,AU,1615413114
Hambantota,6.1241,81.1185,297.49,86,100,3.46,LK,1615413115
Mount Gambier,-37.8333,140.7667,285.15,94,72,2.06,AU,1615413115
Talnakh,69.4865,88.3972,240.24,83,100,2.57,RU,1615413116
Itarema,-2.9248,-39.9167,299.42,80,100,5.08,BR,1615413117
Aksarka,66.5606,67.7975,239.43,86,0,1.92,RU,1615413118
Cañaveral,14.9833,-88.0167,298.21,88,75,1.54,HN,1615413118
Ritchie,-29.038,24.6028,293.15,32,0,3.6,ZA,1615413120
Ürümqi,43.801,87.6005,272.15,93,90,1.0,CN,1615412531
Novyy Svit,47.8059,38.0211,270.33,82,100,3.14,UA,1615413121
Lorengau,-2.0226,147.2712,301.11,73,100,2.44,PG,1615413122
Lakselv,70.0513,24.9718,263.15,62,0,9.77,NO,1615413123
Thompson,55.7435,-97.8558,271.15,54,75,3.6,CA,1615413124
Chengde,40.9725,117.9361,278.95,77,100,0.45,CN,1615413125
Termez,37.2242,67.2783,283.15,50,75,7.2,UZ,1615413126
Lüderitz,-26.6481,15.1594,293.27,77,0,5.64,NA,1615413126
Kutum,14.2,24.6667,294.0,19,0,5.18,SD,1615413127
Novaya Lyalya,59.055,60.599,250.68,88,100,3.99,RU,1615413128
Vardø,70.3705,31.1107,262.15,79,63,16.46,NO,1615413129
El Tigre,8.8875,-64.2454,303.11,36,39,5.94,VE,1615413110
Lagoa,39.05,-27.9833,287.47,88,100,5.67,PT,1615413131
Eureka,40.8021,-124.1637,284.38,68,99,4.02,US,1615413131
Lamesa,32.7376,-101.951,299.82,12,0,8.49,US,1615413132
Neiafu,-18.65,-173.9833,300.15,69,40,3.6,TO,1615413133
Raja,8.4596,25.678,297.98,18,47,1.05,SS,1615413134
Sos'va,59.1766,61.8558,253.06,91,100,4.03,RU,1615413134
Buala,-8.145,159.5921,300.56,76,86,2.22,SB,1615413135
Geraldton,-28.7667,114.6,295.15,88,90,2.57,AU,1615413136
Nyurba,63.2842,118.3319,250.24,90,0,3.14,RU,1615413137
Tilichiki,60.4667,166.1,253.17,93,86,2.72,RU,1615413138
Bethel,41.3712,-73.414,282.89,40,1,5.14,US,1615413139
Kamina,-8.7386,24.9906,290.59,93,77,0.58,CD,1615413014
Warsaw,52.2298,21.0118,271.87,58,0,3.09,PL,1615413033
Santiago,-33.4569,-70.6483,298.68,38,0,3.6,CL,1615412846
Borogontsy,62.6683,131.1683,257.85,93,100,3.26,RU,1615413141
Kos,36.8933,27.2889,287.15,77,20,2.06,GR,1615413142
Dzaoudzi,-12.7887,45.2699,298.15,83,75,4.12,YT,1615413143
Sept-Îles,50.2001,-66.3821,275.28,64,90,2.57,CA,1615413144
Tiznit Province,29.5833,-9.5,288.68,54,0,1.96,MA,1615413144
Port Hedland,-20.3167,118.5667,302.15,89,0,5.14,AU,1615413145
Banjar,-8.19,114.9675,300.15,89,75,2.06,ID,1615413146
Trelleborg,55.3751,13.1569,275.35,69,75,7.2,SE,1615413147
Shimoda,34.6667,138.95,277.04,66,54,0.45,JP,1615413147
Nabire,-3.3667,135.4833,296.93,84,100,1.15,ID,1615413148
Balkanabat,39.5108,54.3671,280.83,55,1,1.5,TM,1615413149
Pedasí,7.5333,-80.0333,301.04,71,62,7.12,PA,1615413150
Necochea,-38.5473,-58.7368,301.48,47,100,3.13,AR,1615413150
Senneterre,48.3835,-77.2328,282.15,53,90,7.2,CA,1615413151
Mugumu,-1.85,34.7,288.8,54,88,1.78,TZ,1615413152
Kiama,-34.6833,150.8667,294.49,79,69,2.24,AU,1615413153
Mandurah,-32.55,115.7,295.93,89,100,3.33,AU,1615413154
Bathsheba,13.2167,-59.5167,300.15,61,40,9.26,BB,1615413154
Bubaque,11.2833,-15.8333,298.99,67,5,6.13,GW,1615413155
Kruisfontein,-34.0033,24.7314,293.71,83,99,1.34,ZA,1615413156
Huilong,31.8111,121.655,283.52,91,100,0.89,CN,1615413157
Grand-Santi,4.25,-54.3833,296.93,95,100,1.59,GF,1615413157
Salamiyah,35.0113,37.0532,285.8,68,100,1.86,SY,1615413158
Matara,5.9485,80.5353,298.02,82,99,5.92,LK,1615413159
Hofn,64.2539,-15.2082,278.3,66,73,2.68,IS,1615413160
Zhalantun,48.0,122.7167,267.8,92,0,2.67,CN,1615413161
Miraflores,19.2167,-98.8083,299.71,4,1,3.6,MX,1615413161
Valleyview,55.0667,-117.2859,263.15,44,54,4.12,CA,1615413162
Santa Maria,-29.6842,-53.8069,300.15,50,20,1.54,BR,1615413163
Puerto Suárez,-18.95,-57.8,306.74,49,0,3.09,BO,1615413164
Newport,51.5877,-2.9984,284.54,82,100,2.68,GB,1615413164
Tautira,-17.7333,-149.15,303.15,62,40,3.09,PF,1615413165
Lagos,6.5833,3.75,300.96,83,100,2.61,NG,1615412810
Chimoio,-19.1164,33.4833,296.15,94,20,0.44,MZ,1615413167
Kahului,20.8947,-156.47,297.39,73,20,7.2,US,1615413167
Lavrentiya,65.5833,-171.0,245.32,78,0,2.13,RU,1615413168
Bakau,13.4781,-16.6819,296.15,60,57,2.57,GM,1615413169
Taoudenni,22.6783,-3.9836,295.15,23,0,6.35,ML,1615412982
Gimbi,9.1667,35.8333,292.89,36,70,1.64,ET,1615413170
Tazovsky,67.4667,78.7,239.12,86,13,2.32,RU,1615413171
Bhagwantnagar,26.2333,80.75,295.15,88,0,2.34,IN,1615413172
Ayorou,14.7308,0.9174,303.39,13,60,6.1,NE,1615413173
Darhan,49.4867,105.9228,268.21,96,0,0.19,MN,1615413174
Dubbo,-32.25,148.6167,293.15,83,90,5.14,AU,1615413175
Saint-Pierre,-21.3393,55.4781,297.34,73,40,2.06,RE,1615413176
Ljungby,56.8332,13.9408,272.27,93,75,3.6,SE,1615413176
Salinópolis,-0.6136,-47.3561,298.45,84,100,2.5,BR,1615413178
Panguna,-6.3164,155.4848,298.38,71,20,0.31,PG,1615413179
Thomaston,32.8882,-84.3266,295.72,25,1,2.57,US,1615413179
Krasnogorsk,55.8225,37.3181,253.81,65,0,2.0,RU,1615413180
Zaria,11.1113,7.7227,300.21,15,42,1.98,NG,1615413181
Tete,-16.1564,33.5867,297.09,100,75,0.54,MZ,1615413182
Beringovskiy,63.05,179.3167,252.13,82,63,1.24,RU,1615413183
Manggar,-2.8833,108.2667,298.15,86,85,2.87,ID,1615413184
Nador,35.174,-2.9287,284.25,87,0,1.49,MA,1615413147
Rawson,-43.3002,-65.1023,303.15,23,75,10.29,AR,1615413143
Verkhoyansk,67.5447,133.385,251.52,81,96,3.43,RU,1615413186
Corsicana,32.0954,-96.4689,297.49,57,75,8.23,US,1615413187
Tuktoyaktuk,69.4541,-133.0374,259.15,85,90,1.03,CA,1615413187
Khatanga,71.9667,102.5,246.24,87,100,10.72,RU,1615413189
Mitú,1.1983,-70.1733,298.81,83,99,0.39,CO,1615413189
Praia da Vitória,38.7333,-27.0667,289.53,94,90,5.18,PT,1615413190
Sindor,62.8629,51.8905,256.97,94,100,2.53,RU,1615413191
Avera,33.194,-82.5271,295.88,23,1,3.6,US,1615413192
Denpasar,-8.65,115.2167,300.15,89,75,2.06,ID,1615413192
Vostok,46.4856,135.8833,262.33,93,85,2.16,RU,1615413193
Antibes,43.5624,7.1278,280.91,81,0,2.57,FR,1615413194
Jalu,29.0331,21.5482,290.23,56,100,3.24,LY,1615413195
Port Blair,11.6667,92.75,298.82,72,0,3.3,IN,1615413196
Saint-Augustin,51.226,-58.6502,272.45,97,99,6.36,CA,1615413196
Dhidhdhoo,6.8833,73.1,301.38,73,63,4.61,MV,1615413040
Malmedy,50.4269,6.0279,277.46,93,90,6.17,BE,1615413198
Ende,-8.8432,121.6623,298.58,78,100,1.22,ID,1615413198
Husavik,66.0449,-17.3389,272.15,93,90,8.75,IS,1615413199
Bom Jesus,-9.0744,-44.3586,297.52,85,96,1.4,BR,1615413200
Sakaiminato,35.55,133.2333,273.15,93,20,0.51,JP,1615413201
Juegang,32.3174,121.1855,282.9,90,100,4.8,CN,1615413202
Morant Bay,17.8815,-76.4093,297.5,78,40,3.09,JM,1615413202
Vila Velha,-20.3297,-40.2925,299.11,78,40,4.63,BR,1615413204
The Valley,18.217,-63.0578,300.18,65,20,6.17,AI,1615413204
Galesong,-5.3166,119.3661,295.15,100,20,1.54,ID,1615413205
Sfântu Gheorghe,45.8667,25.7833,267.91,88,100,1.34,RO,1615413206
Dondo,-19.6094,34.7431,298.93,89,20,3.06,MZ,1615413207
Alyangula,-13.8483,136.4192,297.15,100,54,2.06,AU,1615413208
Mora,11.0461,14.1401,296.52,18,74,1.52,CM,1615413208
La Ronge,55.1001,-105.2842,263.65,52,100,5.66,CA,1615413209
Viedma,-40.8135,-62.9967,305.56,16,16,10.42,AR,1615413210
San Cristobal,7.7669,-72.225,299.15,73,40,4.12,VE,1615413211
Negombo,7.2083,79.8358,297.15,94,40,1.54,LK,1615413211
Torbay,47.6666,-52.7314,272.83,69,20,6.17,CA,1615413212
Minchianabad,30.163,73.5685,292.32,27,0,3.46,PK,1615413213
Ejido,8.5514,-71.2375,294.36,66,100,1.97,VE,1615413214
Korla,41.7597,86.1469,281.07,53,100,1.14,CN,1615413214
Panama City,8.9936,-79.5197,304.34,55,40,3.6,PA,1615413215
Elko,41.0002,-115.5012,277.98,30,90,7.2,US,1615413216
Airai,-8.9266,125.4092,288.59,100,100,0.46,TL,1615413217
Hohhot,40.8106,111.6522,271.15,74,0,2.0,CN,1615413218
Goedereede,51.8175,3.9806,279.26,89,100,3.13,NL,1615413218
Krasnosel'kup,65.7,82.4667,236.05,83,0,0.65,RU,1615413220
Niihama,33.9593,133.3167,278.32,70,75,3.6,JP,1615413221
Adeje,28.1227,-16.726,287.01,63,40,4.12,ES,1615413222
Freeport,40.6576,-73.5832,281.05,61,1,5.14,US,1615413223
Mareeba,-17.0,145.4333,297.75,83,75,3.6,AU,1615413223
Marsh Harbour,26.5412,-77.0636,294.15,75,32,11.75,BS,1615413224
Dunedin,-45.8742,170.5036,285.37,70,28,3.13,NZ,1615413225
Biak,-0.9131,122.8766,297.87,75,85,1.13,ID,1615413226
Longyearbyen,78.2186,15.6401,267.15,86,40,3.09,SJ,1615413227
High Level,58.5169,-117.136,263.15,67,40,3.6,CA,1615413227
Yar-Sale,66.8333,70.8333,238.53,82,0,2.08,RU,1615413228
Bara,10.3744,10.7288,298.74,17,0,0.72,NG,1615413229
Losone,46.1687,8.7593,277.62,60,62,2.04,CH,1615413230
Grindavik,63.8424,-22.4338,270.15,80,90,15.43,IS,1615413231
Kloulklubed,7.0419,134.2556,297.15,94,75,7.87,PW,1615413232
Wattegama,6.7989,81.4808,295.42,89,96,0.6,LK,1615413232
Yulara,-25.2406,130.9889,296.15,78,81,3.09,AU,1615413233
Maniitsoq,65.4167,-52.9,265.88,94,99,3.61,GL,1615413234
Weatherford,32.7593,-97.7972,296.0,69,43,3.58,US,1615412972
Ancud,-41.8697,-73.8203,283.79,62,75,3.6,CL,1615413235
Carlsbad,33.1581,-117.3506,287.31,58,40,4.63,US,1615412975
Sampit,-2.5333,112.95,295.53,92,100,0.52,ID,1615413237
Iberia,29.9502,-91.7507,296.83,57,90,8.75,US,1615413237
Poltavka,54.3663,71.7632,264.3,95,93,6.75,RU,1615413238
Chokwé,-24.5333,32.9833,297.35,53,0,2.54,MZ,1615413239
Talcahuano,-36.7167,-73.1167,289.15,94,90,3.6,CL,1615413240
Petropavlovsk-Kamchatskiy,53.0452,158.6483,266.15,86,75,3.0,RU,1615413241
Chapais,49.7834,-74.8492,279.15,49,90,9.26,CA,1615413241
Río Gallegos,-51.6226,-69.2181,292.15,14,40,12.86,AR,1615413242
Krasnyy Yar,46.5331,48.3456,265.15,73,0,2.0,RU,1615413243
Witbank,-25.8713,29.2332,289.68,35,10,1.42,ZA,1615413244
Portland,45.5234,-122.6762,284.98,62,40,2.57,US,1615413125
Safi,32.2994,-9.2372,286.71,74,0,9.31,MA,1615413245
Kawambwa,-9.7915,29.0791,290.21,93,100,1.52,ZM,1615413246
Belmonte,-15.8631,-38.8828,299.15,69,40,4.12,BR,1615413247
Bahía Blanca,-38.7196,-62.2724,306.44,24,100,5.77,AR,1615413008
Camopi,3.1655,-52.3158,295.83,97,99,1.45,GF,1615413248
Tres Arroyos,-38.3739,-60.2798,301.71,34,100,4.02,AR,1615413249
Knappskog,60.3819,5.0558,277.61,65,75,14.92,NO,1615413250
Te Anau,-45.4167,167.7167,284.39,66,30,0.31,NZ,1615413251
Lauria,40.0465,15.8358,277.11,76,43,4.12,IT,1615413252
Kayerkan,69.3497,87.7602,239.38,82,92,3.17,RU,1615413253
Caravelas,-17.7125,-39.2481,298.82,76,27,4.7,BR,1615413254
Virovitica,45.8319,17.3839,273.15,74,0,0.28,HR,1615413255
Kozluk,38.1938,41.4885,285.15,71,75,6.17,TR,1615413256
Dire Dawa,9.5931,41.8661,294.67,53,23,1.95,ET,1615413256
Bayan,46.0833,127.4,265.77,94,0,1.17,CN,1615413257
Kupang,-10.1667,123.5833,296.15,100,20,1.03,ID,1615413258
Saint-Joseph,-21.3667,55.6167,297.3,73,40,2.06,RE,1615413259
Ibrā’,22.6906,58.5334,292.25,38,0,1.02,OM,1615413260
Skibbereen,51.55,-9.2667,281.15,93,75,15.95,IE,1615413260
Warrnambool,-38.3833,142.4833,284.82,95,100,2.89,AU,1615413261
Los Llanos de Aridane,28.6585,-17.9182,287.98,63,75,7.2,ES,1615413262
Cap-aux-Meules,47.3821,-61.8597,273.15,74,12,3.6,CA,1615413061
Schwarzenbek,53.5,10.4833,277.98,62,100,0.89,DE,1615413263
Bodden Town,19.2833,-81.25,299.37,69,75,9.26,KY,1615413264
Novyy Urgal,51.0736,132.5642,260.79,93,0,0.93,RU,1615413265
Agutaya,11.148,120.9417,299.95,79,31,13.09,PH,1615413265
North Bend,43.4065,-124.2243,283.64,76,1,6.69,US,1615413183
Srednekolymsk,67.45,153.6833,250.88,82,82,3.28,RU,1615413267
Pokhara,28.2333,83.9833,290.29,28,0,3.1,NP,1615413268
Helena,46.5927,-112.0361,278.23,45,1,3.6,US,1615413268
Bentiu,9.2333,29.8333,303.28,25,29,1.39,SS,1615413269
Merauke,-8.4667,140.3333,297.61,87,73,2.53,ID,1615413270
Acaraú,-2.8856,-40.12,299.46,82,100,5.17,BR,1615413271
Chumikan,54.7183,135.315,264.17,93,72,6.5,RU,1615413271
Lukulu,-14.3707,23.242,291.7,91,92,0.67,ZM,1615413272
Līsakovsk,52.5369,62.4936,261.0,93,100,11.35,KZ,1615413273
Angoche,-16.2325,39.9086,298.77,87,100,3.79,MZ,1615413274
Boda,4.3189,17.4695,295.65,88,100,1.44,CF,1615413274
Assiniboia,49.6334,-105.9845,278.15,48,0,6.17,CA,1615413275
Moïssala,8.3404,17.7663,300.17,59,49,2.78,TD,1615413276
Yaring,6.8662,101.3689,297.44,87,37,3.49,TH,1615413277
Ngunguru,-35.6167,174.5,293.15,95,2,0.89,NZ,1615413278
Seredka,58.1584,28.1858,265.15,62,90,4.0,RU,1615413278
Pittsfield,42.4501,-73.2454,284.9,35,1,4.12,US,1615413279
Aller,43.1187,-5.5839,283.0,82,100,2.14,ES,1615413280
Kirundo Province,-2.5833,30.1667,292.15,82,40,1.03,BI,1615413281
Ariquemes,-9.9133,-63.0408,297.98,96,74,1.42,BR,1615413281
Priladozhskiy,59.85,31.4833,254.82,31,0,1.97,RU,1615413282
College,64.8569,-147.8028,268.75,80,90,1.54,US,1615413283
Vysokogornyy,50.1167,139.15,263.94,95,100,1.95,RU,1615413284
Nan,18.8333,100.6667,294.36,55,4,0.56,TH,1615413285
Don Luan,11.5333,106.9167,295.92,74,24,1.34,VN,1615413101
Hailey,43.5196,-114.3153,276.15,32,20,4.12,US,1615413286
Phek,25.6667,94.5,280.84,83,38,0.91,IN,1615413287
Ullal,12.8,74.85,300.15,83,20,1.76,IN,1615413288
Qujing,25.4833,103.7833,283.15,63,0,1.77,CN,1615413188
Zhanakorgan,43.9098,67.2495,273.38,87,0,0.77,KZ,1615413289
Sur,22.5667,59.5289,298.7,39,0,2.71,OM,1615413192
Vilyuysk,63.7553,121.6247,250.37,90,64,3.09,RU,1615413291
Kuril'sk,45.2333,147.8833,268.56,91,79,10.76,RU,1615413291
Yanam,16.7333,82.2167,293.91,96,3,0.88,IN,1615413292
Muttupet,10.4,79.4833,298.56,87,55,3.16,IN,1615413269
Pilot Butte,50.4668,-104.4178,273.15,74,0,6.69,CA,1615413293
Iracoubo,5.4802,-53.2011,298.69,84,88,5.99,GF,1615413294
Pyn U Lwin,22.0333,96.4667,291.39,33,9,0.89,MM,1615413296
Suntar,62.1444,117.6319,252.86,91,2,2.4,RU,1615413263
Porto-Novo,6.4965,2.6036,302.15,84,40,5.66,BJ,1615413297
Poum,-20.2333,164.0167,299.34,72,23,6.73,NC,1615413298
Durban,-29.8579,31.0292,294.19,88,0,0.51,ZA,1615413299
San Clemente,33.427,-117.612,286.57,69,18,6.47,US,1615413300
Alekseyevskoye,55.3071,50.1135,250.15,64,0,6.0,RU,1615413301
Thaton,16.9206,97.3714,294.83,62,4,1.53,MM,1615413301
Lázaro Cárdenas,17.9583,-102.2,300.53,56,0,4.54,MX,1615413302
Raudeberg,61.9875,5.1352,278.15,56,75,13.38,NO,1615413303
Luanda,-8.8368,13.2343,301.15,78,40,3.6,AO,1615412472
Panambi,-28.2925,-53.5017,291.66,67,0,1.31,BR,1615413305
Trairi,-3.2778,-39.2689,299.51,80,99,4.42,BR,1615413305
Kamaishi,39.2667,141.8833,275.2,79,0,2.9,JP,1615413306
Atbasar,51.8,68.3333,261.41,95,99,8.25,KZ,1615413307
Leningradskiy,69.3833,178.4167,245.98,76,0,2.75,RU,1615413308
Adrar,20.5022,-10.0711,291.53,28,0,3.85,MR,1615413308
Calhoun,42.2506,-85.0005,291.94,48,1,7.72,US,1615413309
Gorin,51.1983,136.6669,263.64,94,46,0.94,RU,1615413310
Manzanillo,20.3433,-77.1167,298.14,67,69,9.8,CU,1615413311
Obo,5.3998,26.4869,296.69,30,49,0.96,CF,1615413312
Tuatapere,-46.1333,167.6833,285.37,83,58,0.59,NZ,1615413312
Tual,-5.6667,132.75,301.77,71,94,2.29,ID,1615413313
Potosí,-19.5836,-65.7531,282.23,58,77,2.65,BO,1615413288
Moose Factory,51.2585,-80.6094,268.15,80,90,8.23,CA,1615413314
Yārāda,17.65,83.2667,297.15,100,20,1.03,IN,1615413315
Atambua,-9.1061,124.8925,295.28,91,100,0.74,ID,1615413316
Okha,53.5739,142.9478,262.68,96,100,2.81,RU,1615413317
Oskemen,49.9565,82.6119,278.15,75,90,5.0,KZ,1615413318
Ouallam,14.3188,2.0866,302.63,14,17,1.4,NE,1615413318
São Gabriel,-30.3364,-54.32,295.09,51,0,1.52,BR,1615413319
Emba,48.8264,58.1442,256.25,94,96,4.67,KZ,1615413320
Tire,38.0888,27.7351,280.8,93,0,2.06,TR,1615413321
Sørland,67.667,12.6934,272.1,91,0,8.38,NO,1615413321
Guánica,17.9716,-66.908,299.58,73,2,2.24,PR,1615413322
San Policarpo,12.1791,125.5072,299.01,84,100,9.21,PH,1615413323
Abu Dhabi,24.4667,54.3667,296.15,68,0,1.03,AE,1615413049
Bukama,-9.2,25.85,293.82,91,91,0.59,CD,1615413324
Gushi,34.6425,109.5843,280.05,89,69,1.17,CN,1615413325
Leh,34.1667,77.5833,267.43,79,87,1.25,IN,1615413326
Port-Gentil,-0.7193,8.7815,300.15,83,20,3.09,GA,1615413327
Altagracia de Orituco,9.8601,-66.3814,298.63,58,100,3.54,VE,1615413078
Kysyl-Syr,63.8986,122.7617,252.9,91,94,3.27,RU,1615413328
Arrondissement du Havre,49.5833,0.3333,281.43,87,90,7.72,FR,1615413329
Bulawayo,-20.15,28.5833,291.87,59,0,2.0,ZW,1615413329
Turinskaya Sloboda,57.6232,64.3858,258.03,94,100,5.44,RU,1615413330
Birecik,37.0294,37.9903,282.15,66,0,1.03,TR,1615413331
Klaksvík,62.2266,-6.589,277.15,87,75,6.69,FO,1615413332
Limbaži,57.5129,24.7194,270.06,94,76,0.45,LV,1615413332
Shima,24.4478,117.8111,290.15,72,40,2.0,CN,1615413333
Umluj,25.0213,37.2685,299.03,47,0,2.18,SA,1615413334
Qaqortoq,60.7167,-46.0333,269.15,74,90,1.03,GL,1615413335
Anloga,5.7947,0.8973,302.15,84,20,6.17,GH,1615413336
Kananga,-5.8958,22.4178,295.18,84,78,1.64,CD,1615413336
Isangel,-19.55,169.2667,300.15,74,20,2.57,VU,1615413337
Manuk Mangkaw,4.8,119.85,301.14,74,100,4.44,PH,1615413338
Port Hardy,50.6996,-127.4199,280.15,70,20,4.12,CA,1615413339
Saint Anthony,45.0205,-93.218,278.08,87,90,4.12,US,1615413339
Barcelos,41.5388,-8.6151,285.04,94,90,2.57,PT,1615413340
Klooga,59.3197,24.2114,261.42,66,0,4.63,EE,1615413341
Ban Phaeo,13.5907,100.1075,299.0,99,0,0.85,TH,1615413342
Brae,60.3964,-1.353,280.15,93,90,11.83,GB,1615413342
Egvekinot,66.3167,-179.1667,238.78,86,36,0.81,RU,1615413343
Huainan,32.6264,116.9969,281.7,88,100,2.42,CN,1615413344
Khandyga,62.6667,135.6,256.29,94,100,2.16,RU,1615413345
Nioro,13.35,-15.75,300.93,15,46,3.82,GM,1615413345
Florø,61.5996,5.0328,278.15,56,75,13.38,NO,1615413346
Jiaojiang,28.6803,121.4428,283.97,91,100,1.1,CN,1615413348
Hailar,49.2,119.7,263.16,93,0,2.43,CN,1615413349
Huambo,-12.7761,15.7392,290.29,88,71,1.09,AO,1615413350
Vao,-22.6667,167.4833,298.04,74,21,6.54,NC,1615413350
Pitlochry,56.7051,-3.7343,280.92,90,100,9.83,GB,1615413351
Charters Towers,-20.1,146.2667,296.07,79,5,3.55,AU,1615413352
Lilongwe,-13.9669,33.7873,292.3,82,96,0.55,MW,1615413190
Peterhead,57.5058,-1.7981,280.62,87,87,5.66,GB,1615413353
Zhuhai,22.2769,113.5678,293.34,83,40,5.66,CN,1615413354
Panjakent,39.4952,67.6093,278.15,81,40,4.12,TJ,1615413355
Kano,12.0001,8.5167,298.15,22,0,1.54,NG,1615413356
Buchanan,5.8808,-10.0467,299.15,94,40,2.38,LR,1615413356
Lodja,-3.4833,23.4333,295.78,85,63,0.76,CD,1615413357
Derzhavīnsk,51.1,66.3167,260.82,94,73,8.84,KZ,1615413358
Coffs Harbour,-30.3,153.1333,295.21,83,40,2.57,AU,1615413359
Najrān,17.4924,44.1277,293.15,19,0,1.25,SA,1615413359
Revda,56.801,59.9303,258.15,78,75,7.0,RU,1615413360
Rocha,-34.4833,-54.3333,291.6,82,0,3.1,UY,1615413362
Benguela,-12.5763,13.4055,299.99,78,100,1.6,AO,1615413363
Abnūb,27.2696,31.1511,294.15,35,0,3.09,EG,1615413364
Gornopravdinsk,60.05,69.9,248.73,89,90,3.28,RU,1615413365
Andenes,69.3143,16.1194,267.96,58,0,5.66,NO,1615413366
Ol'ga,43.7444,135.2892,270.52,80,46,1.57,RU,1615413367
Kanigoro,-8.13,112.219,295.56,90,73,2.37,ID,1615413367
Tambo,-14.8,-73.9167,276.37,100,100,4.01,PE,1615413368
Palmer,42.1584,-72.3287,286.26,30,20,3.6,US,1615413369
Khasan,42.4308,130.6434,274.35,85,98,1.44,RU,1615413370
Gradiška,45.1411,17.25,276.15,65,0,0.51,BA,1615413371
Lodwar,3.1191,35.5973,302.92,35,21,4.54,KE,1615413371
Alto Araguaia,-17.3147,-53.2153,295.51,82,100,0.23,BR,1615413372
Shetpe,44.1667,52.1167,270.57,90,39,3.08,KZ,1615413373
Bowen,-20.0167,148.2333,295.15,94,49,2.06,AU,1615413374
Jumla,29.2747,82.1838,276.87,69,0,1.52,NP,1615413374
Karakol,42.4907,78.3936,274.87,78,97,2.29,KG,1615413375
San Fernando del Valle de Catamarca,-28.4696,-65.7852,299.91,62,3,4.47,AR,1615413144
Soyo,-6.1349,12.3689,300.12,83,72,3.27,AO,1615413376
Svay Rieng,11.0879,105.7993,297.36,76,24,1.94,KH,1615413377
Grand-Lahou,5.1367,-5.0242,299.88,88,100,4.17,CI,1615413378
Grand Gaube,-20.0064,57.6608,298.15,80,7,0.89,MU,1615413379
Hobyo,5.3505,48.5268,298.85,83,17,6.4,SO,1615413380
Semnan,35.5729,53.3971,282.16,50,1,1.53,IR,1615413381
Saint-François,46.4154,3.9054,282.65,57,100,2.57,FR,1615413382
Selaphum,16.0299,103.9383,297.29,64,45,3.65,TH,1615413382
Collie,-33.3667,116.15,293.71,86,100,3.13,AU,1615413383
Augsburg,48.3667,10.8833,274.36,80,75,2.06,DE,1615413384
Tessalit,20.1986,1.0114,294.64,20,100,5.17,ML,1615413385
Penco,-36.7333,-72.9833,289.15,94,90,3.6,CL,1615413386
Felipe Carrillo Puerto,19.5833,-88.05,300.53,54,76,3.59,MX,1615413387
Bilibino,68.0546,166.4372,244.5,79,0,1.26,RU,1615413388
Kiunga,-6.1219,141.2906,296.8,98,100,0.55,PG,1615413388
Adré,13.4667,22.2,297.35,16,0,5.7,TD,1615413389
Amurzet,47.6967,131.0981,266.38,94,1,2.79,RU,1615413390
